{"meta":{"code":200},"response":
{"venues":[
{"id":"4e4d9c17814dd49447e709e1","name":"Gasoline Alley Coffee","contact":{"phone":"2129330113","formattedPhone":"(212) 933-0113","twitter":"gasolinealleyco"},"location":{"address":"325 Lafayette St.","crossStreet":"btwn Bleecker & E Houston St.","lat":40.725551325924265,"lng":-73.99476528167725,"distance":2878,"postalCode":"10012","cc":"US","city":"New York","state":"NY","country":"United States","formattedAddress":["325 Lafayette St. (btwn Bleecker & E Houston St.)","New York, NY 10012","United States"]},"categories":[{"id":"4bf58dd8d48988d1e0931735","name":"Coffee Shop","pluralName":"Coffee Shops","shortName":"Coffee Shop","icon":{"prefix":"https:\/\/ss3.4sqi.net\/img\/categories_v2\/food\/coffeeshop_","suffix":".png"},"primary":true}],"verified":true,"stats":{"checkinsCount":13657,"usersCount":4264,"tipCount":168},"url":"http:\/\/gasolinealleycoffee.com","specials":{"count":0,"items":[]},"hereNow":{"count":7,"summary":"7 people are checked in here","groups":[{"type":"others","name":"Other people here","count":7,"items":[]}]},"venuePage":{"id":"53804667"},"storeId":"","referralId":"v-1412870858"},
{"id":"4ae33a3df964a520f99121e3","name":"Think Coffee","contact":{"phone":"2124983094","formattedPhone":"(212) 498-3094","twitter":"thinkcoffeenyc","facebook":"269293536484453","facebookUsername":"thinkcoffeenyc","facebookName":"Think Coffee"},"location":{"address":"123 4th Ave","crossStreet":"btwn 12th & 13th St","lat":40.733029,"lng":-73.990038,"distance":3771,"postalCode":"10003","cc":"US","city":"New York","state":"NY","country":"United States","formattedAddress":["123 4th Ave (btwn 12th & 13th St)","New York, NY 10003","United States"]},"categories":[{"id":"4bf58dd8d48988d1e0931735","name":"Coffee Shop","pluralName":"Coffee Shops","shortName":"Coffee Shop","icon":{"prefix":"https:\/\/ss3.4sqi.net\/img\/categories_v2\/food\/coffeeshop_","suffix":".png"},"primary":true}],"verified":true,"stats":{"checkinsCount":23955,"usersCount":10189,"tipCount":182},"url":"http:\/\/thinkcoffeenyc.com","hasMenu":true,"menu":{"type":"Menu","label":"Menu","anchor":"View Menu","url":"https:\/\/foursquare.com\/v\/think-coffee\/4ae33a3df964a520f99121e3\/menu","mobileUrl":"https:\/\/foursquare.com\/v\/4ae33a3df964a520f99121e3\/device_menu"},"specials":{"count":0,"items":[]},"hereNow":{"count":6,"summary":"6 people are checked in here","groups":[{"type":"others","name":"Other people here","count":6,"items":[]}]},"storeId":"","referralId":"v-1412870858"},
{"id":"49d7b51ff964a520515d1fe3","name":"Gimme! Coffee","contact":{"phone":"2122264011","formattedPhone":"(212) 226-4011","twitter":"gimmecoffee"},"location":{"address":"228 Mott St","crossStreet":"btwn Prince St & Spring St","lat":40.722279576782924,"lng":-73.99517675668822,"distance":2513,"postalCode":"10012","cc":"US","city":"New York","state":"NY","country":"United States","formattedAddress":["228 Mott St (btwn Prince St & Spring St)","New York, NY 10012","United States"]},"categories":[{"id":"4bf58dd8d48988d1e0931735","name":"Coffee Shop","pluralName":"Coffee Shops","shortName":"Coffee Shop","icon":{"prefix":"https:\/\/ss3.4sqi.net\/img\/categories_v2\/food\/coffeeshop_","suffix":".png"},"primary":true}],"verified":true,"stats":{"checkinsCount":16692,"usersCount":4435,"tipCount":172},"url":"http:\/\/gimmecoffee.com","hasMenu":true,"menu":{"type":"Menu","label":"Menu","anchor":"View Menu","url":"https:\/\/foursquare.com\/v\/gimme-coffee\/49d7b51ff964a520515d1fe3\/menu","mobileUrl":"https:\/\/foursquare.com\/v\/49d7b51ff964a520515d1fe3\/device_menu"},"specials":{"count":0,"items":[]},"hereNow":{"count":5,"summary":"5 people are checked in here","groups":[{"type":"others","name":"Other people here","count":5,"items":[]}]},"venuePage":{"id":"54276959"},"storeId":"","referralId":"v-1412870858"},
{"id":"5259739911d2da358f30c814","name":"Whynot Coffee","contact":{"phone":"6466829065","formattedPhone":"(646) 682-9065","twitter":"whynotorchard","facebook":"641881655845423","facebookUsername":"whynotorchard","facebookName":"Whynot Coffee - Orchard"},"location":{"address":"175 Orchard St","crossStreet":"btwn Stanton and East Houston","lat":40.7215752566295,"lng":-73.98844599723816,"distance":2592,"postalCode":"10002","cc":"US","city":"New York","state":"NY","country":"United States","formattedAddress":["175 Orchard St (btwn Stanton and East Houston)","New York, NY 10002","United States"]},"categories":[{"id":"4bf58dd8d48988d1e0931735","name":"Coffee Shop","pluralName":"Coffee Shops","shortName":"Coffee Shop","icon":{"prefix":"https:\/\/ss3.4sqi.net\/img\/categories_v2\/food\/coffeeshop_","suffix":".png"},"primary":true}],"verified":true,"stats":{"checkinsCount":2834,"usersCount":1444,"tipCount":56},"specials":{"count":0,"items":[]},"hereNow":{"count":4,"summary":"4 people are checked in here","groups":[{"type":"others","name":"Other people here","count":4,"items":[]}]},"venuePage":{"id":"75296484"},"storeId":"","referralId":"v-1412870858"}
